City_ID,City,Country,Max Temp,Current Description,Lat,Lng,Hotel Name
2,Rikitea,PF,79.72,clear sky,-23.1203,-134.9692,Pension Maro'i
6,Kiama,AU,72.0,few clouds,-34.6833,150.8667,The Sebel Kiama Harbourside
14,Hirara,JP,75.2,broken clouds,24.8,125.2833,Hotel Atoll Emerald Miyakojima
17,Victoria,HK,75.99,clear sky,22.2855,114.1577,Mini Hotel Central
18,Vaini,TO,86.0,broken clouds,-21.2,-175.2,Keleti Beach Resort
21,Kulhudhuffushi,MV,83.3,overcast clouds,6.6221,73.07,Haajy Guest House 1
23,San Patricio,US,86.0,overcast clouds,28.017,-97.5169,"Motel 6 Sinton, TX"
26,Cancun,MX,80.6,scattered clouds,21.1743,-86.8466,Hotel Tankah Cancun
33,Butaritari,KI,81.19,light rain,3.0707,172.7902,Isles Sunset Lodge
34,Kapaa,US,78.8,scattered clouds,22.0752,-159.319,Sheraton Kauai Resort at Coconut Beach
36,Nata,PA,84.2,few clouds,8.3333,-80.5167,Cabañas Estancia Bayamon
39,Quatre Cocos,MU,77.0,broken clouds,-20.2078,57.7625,Emeraude Beach Attitude Hotel
45,Hervey Bay,AU,80.6,clear sky,-25.2986,152.8535,Shelly Bay Resort
46,Cidreira,BR,72.99,overcast clouds,-30.1811,-50.2056,Hotel Castelo
47,Hilo,US,78.8,light rain,19.7297,-155.09,Hilo Hawaiian Hotel
53,Bambous Virieux,MU,77.0,broken clouds,-20.3428,57.7575,Casa Tia Villa
58,Salalah,OM,75.2,clear sky,17.0151,54.0924,HAMDAN PLAZA HOTEL SALALAH
67,Cape Canaveral,US,77.0,clear sky,28.4058,-80.6048,Residence Inn by Marriott Cape Canaveral Cocoa Beach
70,Biak,ID,79.38,light rain,-0.9131,122.8766,Penginapan Kim
71,Benjamin Hill,MX,79.0,clear sky,30.1667,-111.1,Luis Guillermo García Medina
72,Nhulunbuy,AU,77.0,moderate rain,-12.2333,136.7667,East Arnhem Real Estate
74,Saint-Joseph,RE,75.2,light rain,-21.3667,55.6167,"""Plantation Bed and Breakfast"
76,Catio,GW,75.2,overcast clouds,11.2833,-15.25,Pausada Morabedja
77,Kalmunai,LK,77.95,overcast clouds,7.4167,81.8167,VS Villa
79,Puerto Ayora,EC,79.0,few clouds,-0.7393,-90.3518,Finch Bay Galapagos Hotel
82,Namibe,AO,74.89,overcast clouds,-15.1961,12.1522,Hotel Chik Chik Namibe
83,Abu Dhabi,AE,77.0,clear sky,24.4667,54.3667,Ramee Garden Hotel Apartments
84,Atuona,PF,81.05,light rain,-9.8,-139.0333,Villa Enata
92,Perbaungan,ID,75.2,mist,3.5679,98.956,Bendang Lama
93,Basco,PH,79.86,clear sky,20.4487,121.9702,Nathaniel's Lodge
94,Galesong,ID,78.8,few clouds,-5.3166,119.3661,Sapriadi Appy
95,Bathsheba,BB,77.0,few clouds,13.2167,-59.5167,Atlantis Hotel
100,Faanui,PF,82.72,scattered clouds,-16.4833,-151.75,Bora-Bora Pearl Beach Resort & Spa
102,Padang,ID,77.0,broken clouds,-0.9492,100.3543,Mercure Padang
108,Aneho,TG,82.4,few clouds,6.2333,1.6,Hotel La Linette
110,Bengkulu,ID,75.16,overcast clouds,-3.8004,102.2655,Grage Hotel Bengkulu
112,Saint-Philippe,RE,75.2,light rain,-21.3585,55.7679,"Chambres d'hôte ""La Trinité"""
114,Ban Phai,TH,82.99,overcast clouds,16.06,102.73100000000001,Inpawa Hotel
115,Mahebourg,MU,73.4,broken clouds,-20.4081,57.7,Shandrani Beachcomber Resort & Spa
116,Paciran,ID,79.32,scattered clouds,-6.8767,112.3761,Tanjung Kodok Beach Resort
122,Aquiraz,BR,77.0,broken clouds,-3.9014,-38.3911,Pousada Rua Camurupim
124,Nova Londrina,BR,76.77,moderate rain,-22.7658,-52.985,HOTEL FELICE
125,Hithadhoo,MV,83.28,moderate rain,-0.6,73.0833,Scoop Guest House
127,Manoel Urbano,BR,75.2,broken clouds,-8.8389,-69.2597,Baixada Beira Rio
129,Arraial Do Cabo,BR,78.8,clear sky,-22.9661,-42.0278,Pousada Porto Praia
130,Catuday,PH,80.73,broken clouds,16.2923,119.8062,GResort
132,Sechura,PE,77.81,broken clouds,-5.5569,-80.8222,Hospedaje Costa Bella
135,Wattegama,LK,74.25,heavy intensity rain,6.7989,81.4808,
137,Waingapu,ID,81.68,overcast clouds,-9.6567,120.2641,Pondok Wisata Elim
140,Nouakchott,MR,71.6,few clouds,18.0858,-15.9785,HOTEL IMAN فندق إيمان
141,Mandiana,GN,82.8,few clouds,10.6333,-8.6833,Centre d'accueil de Mandiana
148,Rodeo,US,78.8,clear sky,38.033,-122.2669,Captain's Cottage
149,Sao Filipe,CV,70.21,clear sky,14.8961,-24.4956,Tortuga B&B
151,Carnarvon,AU,78.8,clear sky,-24.8667,113.6333,Hospitality Carnarvon
152,Kandrian,PG,84.58,overcast clouds,-6.2167,149.55,Kandrian Station
153,Bac Lieu,VN,81.45,scattered clouds,9.285,105.7244,Khách sạn Sài Gòn Bạc Liêu
155,Mogadishu,SO,80.2,overcast clouds,2.0371,45.3438,Olympic Hotel
157,Lalmohan,BD,76.78,broken clouds,22.3384,90.7419,Sundorbon courier service
158,Luganville,VU,84.25,broken clouds,-15.5333,167.1667,The Espiritu Hotel
159,Lagunas,PE,75.58,overcast clouds,-5.2269,-75.6753,Hospedaje Eco
162,Hubli,IN,73.89,broken clouds,15.35,75.1667,Hotel Swathi
166,Ilhabela,BR,78.24,clear sky,-23.7781,-45.3581,Ilha Flat Hotel
168,Ambon,ID,77.0,moderate rain,-3.6954,128.1814,Swiss-Belhotel Ambon
169,Lorengau,PG,82.53,overcast clouds,-2.0226,147.2712,Lorengau Harbourside Hotel
181,Half Moon Bay,US,75.2,haze,37.4636,-122.4286,"The Ritz-Carlton, Half Moon Bay"
182,Kokopo,PG,84.29,overcast clouds,-4.352,152.2633,Kokopo Beach Bungalow Resort
185,Cabo San Lucas,MX,77.0,few clouds,22.8909,-109.9124,Hotel Tesoro Los Cabos
187,San Cristobal,VE,73.4,fog,7.7669,-72.225,Posada Villaven C.A.
193,Kailua,US,82.4,scattered clouds,21.4022,-157.7394,Sheffield House Bed & Breakfast
195,San Ramon,US,78.01,clear sky,37.7799,-121.978,San Ramon Marriott
199,Mackay,AU,82.99,clear sky,-21.15,149.2,International Lodge Motel
201,Nsanje,MW,72.18,moderate rain,-16.92,35.262,Nsanje Discovery Lodge
203,Boffa,GN,75.25,clear sky,10.1667,-14.0333,Hôtel Niara Belly
207,Sawtell,AU,78.8,clear sky,-30.3833,153.1,Island Beach House Sawtell
209,Port Macquarie,AU,79.0,clear sky,-31.4333,152.9167,Rydges Port Macquarie
211,Puerto Escondido,MX,84.2,clear sky,15.85,-97.0667,Aldea del Bazar Hotel and Spa
212,Ibateguara,BR,75.2,light rain,-8.9725,-35.9394,Auto Posto e Pousada TopLine
213,Isangel,VU,82.4,few clouds,-19.55,169.2667,Volcano Sea View Tree House
217,Effingham,US,78.8,clear sky,32.3669,-81.3332,Elizabeth Hobbs
219,Hambantota,LK,77.05,overcast clouds,6.1241,81.1185,Bungalow 63
220,Weligama,LK,76.51,overcast clouds,5.9667,80.4167,Weligama Bay Resort
224,Farah,AF,74.68,broken clouds,32.5,62.5,
225,Vila Velha,BR,78.8,clear sky,-20.3297,-40.2925,Quality Suites Vila Velha
226,Washim,IN,78.42,clear sky,20.1,77.15,Hotel Maniprabha
227,Akyab,MM,76.01,overcast clouds,20.15,92.9,Hotel Memory
228,Alofi,NU,84.2,light rain,-19.0595,-169.9187,Taloa Heights
229,Emerald,AU,82.0,clear sky,-23.5333,148.1667,The Irish Village
230,Carora,VE,78.3,overcast clouds,10.1755,-70.0827,Hotel Irpinia
231,Tarauaca,BR,74.88,overcast clouds,-8.1614,-70.7656,Flat Temporada
234,Kavieng,PG,84.94,overcast clouds,-2.5744,150.7967,Nusa Island Retreat
235,Georgetown,MY,80.6,few clouds,5.4112,100.3354,Cititel Penang
238,Edgewater,US,75.99,clear sky,28.9889,-80.9023,Islander Beach Resort
239,Quang Ngai,VN,73.69,overcast clouds,15.1167,108.8,Central Hotel
243,Meulaboh,ID,76.57,broken clouds,4.1363,96.1285,Kost Pria
244,Camocim,BR,75.99,light rain,-2.9022,-40.8411,Hotel Ilha do Amor
246,Kota Kinabalu,MY,80.6,few clouds,5.9749,116.0724,Gaya Centre Hotel
247,Kralendijk,BQ,78.8,scattered clouds,12.15,-68.2667,Divi Flamingo Beach Resort & Casino
256,Vao,NC,77.99,few clouds,-22.6667,167.4833,Hotel Kou-Bugny
259,Yenagoa,NG,77.7,overcast clouds,4.9247,6.2642,Aridolf Resort Wellness and Spa
260,Touros,BR,77.0,broken clouds,-5.1989,-35.4608,INN NEW HORIZON
262,Souillac,MU,73.4,broken clouds,-20.5167,57.5167,Shanti Maurice Resort & Spa
263,Sokolo,ML,84.42,clear sky,14.7328,-6.1219,
267,Noumea,NC,87.8,clear sky,-22.2763,166.4572,Hôtel Le Lagon
269,Port-Gentil,GA,78.8,few clouds,-0.7193,8.7815,Fengshui Residence
270,Baturaja,ID,73.56,overcast clouds,-4.1333,104.1667,"HOTEL Sekar Sunja, Baturaja Timur, Ogan Komering Ulu"
272,Imbituba,BR,75.2,light rain,-28.24,-48.6703,Praia Hotel Imbituba
273,Ananas,HT,72.43,broken clouds,19.2466,-71.9557,
278,Loandjili,CG,82.4,broken clouds,-4.7561,11.8578,Résidence ARCHANGE
281,Taoudenni,ML,78.4,clear sky,22.6783,-3.9836,
283,Avarua,CK,86.0,broken clouds,-21.2078,-159.775,Paradise Inn
284,Nishihara,JP,77.0,broken clouds,26.1842,127.7558,Minshuku Agaihama
287,Rudbar,AF,78.73,clear sky,30.15,62.6,
289,Mudgee,AU,70.0,clear sky,-32.5943,149.5871,Parklands Resort & Conference Centre
290,Coruripe,BR,76.66,scattered clouds,-10.1256,-36.1756,Pousada e Hotel Litoral Sul
296,Nelson Bay,AU,75.0,clear sky,-32.7167,152.15,Mantra Nelson Bay
297,Tecoanapa,MX,82.15,clear sky,16.5167,-98.75,Hotel Manglares
298,Port Moresby,PG,84.2,few clouds,-9.4431,147.1797,Lamana Hotel
300,Valentin Gomez Farias,MX,72.0,clear sky,28.2167,-106.5833,
301,Bintulu,MY,77.0,scattered clouds,3.1667,113.0333,900 Boutique INN
302,Morant Bay,JM,82.4,few clouds,17.8815,-76.4093,Whispering Bamboo Cove Resort
304,Atar,MR,78.22,clear sky,20.5169,-13.0499,Oumou Elghoura
306,Bom Jesus,BR,81.36,overcast clouds,-9.0744,-44.3586,Hotel Brasão & Floricultura Bella Flor
309,Katobu,ID,76.21,overcast clouds,-4.9408,122.5276,La Ode Husein
310,Grand Gaube,MU,77.0,broken clouds,-20.0064,57.6608,Veranda Paul et Virginie Hotel & Spa
313,Ballina,AU,77.0,clear sky,-28.8667,153.5667,Ramada Hotel & Suites by Wyndham Ballina Byron
314,Boa Vista,BR,86.0,broken clouds,2.8197,-60.6733,Aipana Plaza Hotel
319,Sao Felix Do Xingu,BR,71.87,scattered clouds,-6.6447,-51.995,Rio Xingu Camping
322,Gigmoto,PH,80.89,overcast clouds,13.7796,124.39,Cj's Travellers Inn
325,Kulim,MY,80.6,few clouds,5.365,100.5618,Hotel Kulim
328,Pekan,MY,75.2,few clouds,3.4836,103.3996,Pekan Budget Hotel
332,Fare,PF,82.33,scattered clouds,-16.7,-151.0167,Maitai Lapita Village Huahine
336,San Andres,CO,80.6,few clouds,12.5847,-81.7006,Hotel Arena Blanca
340,Huarmey,PE,71.02,scattered clouds,-10.0681,-78.1522,Hotel Miramar
341,Tevaitoa,PF,82.31,light rain,-16.7833,-151.5,Hôtel Raiatea Lodge
347,Liberty,US,80.6,scattered clouds,31.8335,-81.5004,Sasser Trailer Park
353,Kilinochchi,LK,75.74,overcast clouds,9.3961,80.3982,Solaivanam Guest House
355,Caravelas,BR,75.88,few clouds,-17.7125,-39.2481,Pousada dos Navegantes
362,Marsabit,KE,71.65,overcast clouds,2.3284,37.9899,Chicho Hotel
363,Pochutla,MX,89.6,clear sky,15.7432,-96.4661,Hotel Posada San Jose
365,Coahuayana,MX,78.8,scattered clouds,18.7333,-103.6833,El rranchito michuacan de ocampos
371,Sao Joao Da Barra,BR,77.32,clear sky,-21.6403,-41.0511,Pousada Porto De Canoas
372,Harper,LR,77.54,light rain,4.375,-7.7169,Screensaver
373,Upata,VE,75.99,scattered clouds,8.0086,-62.3989,Posada Villa Nela
378,Chimoio,MZ,71.6,scattered clouds,-19.1164,33.4833,Predio Livraria Ahmed
387,Bajil,YE,77.65,few clouds,15.0584,43.2851,فندق الجلال
391,Yabassi,CM,78.8,few clouds,4.457,9.9682,MOTEL FOMI
392,Ilheus,BR,80.6,few clouds,-14.7889,-39.0494,Barravento Hotel
396,Pandan,PH,80.26,broken clouds,14.0453,124.1694,Bonifacio Lodge
397,Uarini,BR,77.0,moderate rain,-2.99,-65.1083,
400,Sur,OM,81.52,scattered clouds,22.5667,59.5289,Sur Plaza Hotel
403,Sarangani,PH,81.37,very heavy rain,5.4033,125.4636,Ballistic Islet
407,Gizo,SB,85.03,broken clouds,-8.103,156.8419,Imagination Island
408,Tautira,PF,87.8,light rain,-17.7333,-149.15,Pension Oaoa
410,Barranco,PA,78.8,few clouds,9.5167,-82.7,Casa doña Delfina Jiménez
411,Sabang,ID,82.06,overcast clouds,5.8933,95.3214,Hotel Citra
412,Bambanglipuro,ID,78.55,broken clouds,-7.95,110.2833,Puri Brata
413,Thinadhoo,MV,82.17,overcast clouds,0.5333,72.9333,
414,Kavaratti,IN,82.42,overcast clouds,10.5669,72.642,Hotels in Lakshadweep Islands
415,Zaranj,AF,80.71,clear sky,30.9667,61.8833,غزنوی هوتل
416,Boromo,BF,86.65,few clouds,11.75,-2.9333,Sama Camp
419,Adrar,MR,77.83,clear sky,20.5022,-10.0711,
420,Alice Springs,AU,77.0,scattered clouds,-23.7,133.8833,Desert Palms Alice Springs
423,Manggar,ID,79.74,broken clouds,-2.8833,108.2667,Guest Hotel
428,Celestun,MX,85.87,scattered clouds,20.8667,-90.4,Posada Lilia
430,Sai Buri,TH,77.18,clear sky,6.7013,101.6168,ร้าน​ เวดดิ้ง
431,Ahuimanu,US,82.4,scattered clouds,21.4447,-157.8378,Paradise Bay Resort
432,Lamu,KE,80.6,scattered clouds,-2.2717,40.902,Lamu House
434,Kahului,US,82.4,scattered clouds,20.8947,-156.47,Maui Seaside Hotel
440,Luangwa,ZM,70.43,broken clouds,-15.6167,30.4167,Gerasimos Safari Lodge
441,Yokadouma,CM,72.18,scattered clouds,3.5167,15.05,Hôtel De Ville De Yokadouma
445,Sola,VU,83.12,scattered clouds,-13.8833,167.55,Leumerus Bungalows
453,Ocho Rios,JM,79.0,few clouds,18.4025,-77.1048,Rooms Ocho Rios Hotel
456,Keelung,TW,75.99,few clouds,25.1283,121.7419,East Coast Star Boutique Hotel
458,Inhambane,MZ,71.55,clear sky,-23.865,35.3833,Oceano
460,Contamana,PE,75.45,scattered clouds,-7.3333,-75.0167,Shiringal Touristic Park
462,Port Blair,IN,80.82,overcast clouds,11.6667,92.75,Welcomhotel Bay Island Port Blair
463,Wang Noi,TH,84.2,few clouds,14.2269,100.7155,วังน้อยรีสอร์ท
467,Takaungu,KE,77.0,broken clouds,-3.6837,39.8566,Takaungu House
468,Kieta,PG,83.62,light rain,-6.2167,155.6333,Uruna Bay Retreat
469,George Town,MY,80.6,few clouds,5.4112,100.3354,Cititel Penang
471,Angoche,MZ,77.5,few clouds,-16.2325,39.9086,Guest House HESADA
472,Comodoro Rivadavia,AR,73.4,clear sky,-45.8667,-67.5,Austral Hotel
474,Media Luna,CU,81.3,scattered clouds,20.1419,-77.435,Casa particular Pedro y Tamara
477,Chilca,PE,70.0,clear sky,-12.5211,-76.7372,Playa Punta Yaya - Las Salinas
479,Altamira,BR,73.08,broken clouds,-3.2033,-52.2064,Requinte Hotel
481,Warri,NG,77.61,overcast clouds,5.5167,5.75,BON Hotel Delta
483,Carutapera,BR,74.68,broken clouds,-1.195,-46.02,Lidera
486,Mala,PE,70.7,scattered clouds,-12.6581,-76.6308,Hotel Granda
488,Cabedelo,BR,78.8,broken clouds,-6.9811,-34.8339,Hotel Pigalle
491,Ambilobe,MG,71.98,light rain,-13.2,49.05,Hôtel & Restaurant DIANA Ambilobe
492,Yorosso,ML,87.44,clear sky,12.3536,-4.7761,Maison d'arrêt et de correction de Yoro
496,San Matias,BO,79.07,broken clouds,-16.3667,-58.4,"HOTEL ""SAN JOSE"""
500,Rincon,US,77.0,broken clouds,32.296,-81.2354,Days Inn Rincon
501,Ciamis,ID,75.96,broken clouds,-7.3257,108.3534,The Priangan Boutique Hotel @ Yos Sudarso
502,Bowen,AU,82.4,clear sky,-20.0167,148.2333,Castle Motor Lodge Motel
503,Tomatlan,MX,80.89,overcast clouds,19.9333,-105.25,Norma franco
504,Payo,ID,73.17,overcast clouds,-3.7508,103.6372,Mess keban agung
505,Gladstone,AU,80.6,scattered clouds,-23.85,151.25,Highpoint International
511,Santa Paula,US,73.99,clear sky,34.3542,-119.0593,Santa Paula Inn
520,Omboue,GA,78.75,broken clouds,-1.5746,9.2618,Hotel Olako
522,Talara,PE,78.8,clear sky,-4.5772,-81.2719,Hostal Oro Negro
523,Alta Floresta,BR,77.0,scattered clouds,-9.8756,-56.0861,Floresta Amazonica Hotel
529,Kagoro,NG,75.29,clear sky,9.6,8.3833,Palm Garden Hotel
530,Sunrise Manor,US,73.4,clear sky,36.2111,-115.0731,Comfort Inn & Suites Las Vegas - Nellis
531,Avera,US,78.8,clear sky,33.194,-82.5271,
532,West Bay,KY,82.4,few clouds,19.3667,-81.4167,Calypso Cove
533,Campina Verde,BR,76.1,clear sky,-19.5356,-49.4864,Hotel Lino
536,Banda Aceh,ID,79.47,broken clouds,5.5577,95.3222,Sulthan Hotel International
540,Kindia,GN,70.52,scattered clouds,10.0569,-12.8658,LES EAUX DE KILISSI
544,Barpali,IN,75.18,clear sky,21.2,83.5833,GREEN HOUSE LODGE
546,Ravar,IR,74.14,few clouds,31.2656,56.8055,computertik
548,Makakilo City,US,84.2,scattered clouds,21.3469,-158.0858,Marriott's Ko Olina Beach Club
549,Labuan,MY,77.0,few clouds,5.2767,115.2417,Tiara Labuan Hotel
551,Cururupu,BR,72.41,broken clouds,-1.8283,-44.8683,Pousada Través'cia
554,Srandakan,ID,78.64,broken clouds,-7.9386,110.2506,Puri Brata
556,Hualmay,PE,70.38,few clouds,-11.0964,-77.6139,Hotel Villa Kitzia Huacho
558,Russell,US,80.6,clear sky,32.3502,-85.1999,Macs
565,Salinopolis,BR,77.61,overcast clouds,-0.6136,-47.3561,Salinas Park Resort Maçarico AP101
567,Cap Malheureux,MU,77.0,broken clouds,-19.9842,57.6142,Pereybere Hotel & Spa
568,Eyl,SO,77.45,overcast clouds,7.9803,49.8164,Amiin Hotel
571,Vilhena,BR,78.8,few clouds,-12.7406,-60.1458,Hotel Mirage
576,El Alto,PE,78.8,clear sky,-4.2714,-81.2147,Black Marlin Restaurant & Hospedaje
578,Farafangana,MG,74.17,clear sky,-22.8167,47.8333,Miarina
585,Bandarbeyla,SO,77.83,few clouds,9.4942,50.8122,JABIR HOTEL
586,Sorong,ID,78.31,overcast clouds,-0.8833,131.25,The Waigo Hotel
587,Kindu,CD,70.0,overcast clouds,-2.95,25.95,Résidence Okanda
589,Gao,ML,70.66,clear sky,16.6362,1.6369999999999998,
590,Anloga,GH,82.4,few clouds,5.7947,0.8973,Pin Drop Hotel
593,Daru,PG,84.49,overcast clouds,-9.0763,143.2092,Daru Lodge
595,Buala,SB,84.36,moderate rain,-8.145,159.5921,Maringe Lagoon Lodge
597,Pecos,US,75.2,clear sky,31.4229,-103.4932,Knights Inn Pecos
598,Shwebo,MM,79.57,overcast clouds,22.5667,95.7,MOON SHINE Guest House
599,Motema,SL,73.99,few clouds,8.6,-11.0333,Diamond Lodge
604,Muyuka,CM,78.8,few clouds,4.2898,9.4103,Muyuka Motor Park (El Paso)
609,Maturin,VE,74.64,broken clouds,9.75,-63.1767,Hotel Residencial La Pichincha
610,Bonfim,BR,82.81,broken clouds,3.0833,-59.95,
613,Pringsewu,ID,74.3,overcast clouds,-5.3582,104.9744,Urban Style by Front One
614,Sidney,AU,73.0,few clouds,-33.8679,151.2073,The Grace Sydney
615,Kawalu,ID,75.09,broken clouds,-7.3817,108.2082,KOSAN UNGU UNSIK
616,Sanand,IN,78.8,smoke,22.9833,72.3833,OYO Flagship 22887 Hotel Prerna Narmada Vasahat
618,Ugoofaaru,MV,82.29,overcast clouds,5.6667,73.0,Ungoofaaru Inn
620,Lubao,PH,78.8,broken clouds,14.9167,120.55,Hacienda Gracia
621,Vaitape,PF,82.72,scattered clouds,-16.5167,-151.75,Conrad Bora Bora Nui
623,Ciudad Bolivar,VE,81.45,broken clouds,8.1222,-63.5497,Hotel Edi
625,Anuradhapura,LK,73.24,broken clouds,8.3565,80.4173,Nilketha Villa Eco Hotel
626,Redcliffe,AU,82.99,scattered clouds,-27.2307,153.0973,Redvue Apartments
627,Lagdo,CM,82.58,scattered clouds,9.05,13.7333,
628,Laborie,LC,78.8,scattered clouds,13.75,-60.9833,QR Quality Rooms Cedar Palm Villa
630,Marsh Harbour,BS,76.03,clear sky,26.5412,-77.0636,Abaco Beach Resort
633,Hobyo,SO,79.83,few clouds,5.3505,48.5268,Halane Hotel and Restaurent
634,Rio Casca,BR,72.59,clear sky,-20.2261,-42.6508,Hotel Morada do Sol
637,Mora,CM,75.13,few clouds,11.0461,14.1401,Hotel Emergence
638,Karratha,AU,84.02,light rain,-20.7377,116.8463,ibis Styles Karratha
640,Laguna,US,75.99,clear sky,38.421,-121.4238,Holiday Inn Express & Suites Elk Grove Central - Hwy 99
644,Mitu,CO,73.33,scattered clouds,1.1983,-70.1733,
645,Neiafu,TO,86.0,scattered clouds,-18.65,-173.9833,Mystic Sands
646,Dingle,PH,80.31,overcast clouds,10.9995,122.6711,SEGAYA PROPERTY
649,Yeppoon,AU,80.6,scattered clouds,-23.1333,150.7333,Villa Mar Colina
659,Torres,BR,72.79,overcast clouds,-29.3353,-49.7269,Farol Hotel
660,Edd,ER,76.8,clear sky,13.9297,41.6925,
667,Kirakira,SB,85.17,scattered clouds,-10.4544,161.9205,SanBiz Lodge
668,Ovalle,CL,72.77,clear sky,-30.5983,-71.2003,Hotel Altos de Tuqui
670,Ban Nahin,LA,81.28,broken clouds,18.2418,104.2122,
673,Matara,LK,76.08,overcast clouds,5.9485,80.5353,Amaloh Boutique Resort
674,Cananeia,BR,77.7,heavy intensity rain,-25.0147,-47.9267,Casa azul
677,Guaratinga,BR,78.8,clear sky,-16.5667,-39.5667,Hotel Caraíva
678,Coffs Harbour,AU,78.8,clear sky,-30.3,153.1333,Aquajet Motel
680,Ladario,BR,82.0,broken clouds,-19.0047,-57.6017,Hotel Fazenda 4 cantos
682,Oussouye,SN,73.4,clear sky,12.485,-16.5469,Auberge du Routard
683,Singkang,MY,71.6,mist,2.1006,102.7994,Kampung Seri Makmor Pagoh
686,Sucua,EC,71.6,light rain,-2.4667,-78.1667,Hotel Orellana
691,San Policarpo,PH,81.25,broken clouds,12.1791,125.5072,JM Lodge
692,Poya,NC,87.64,clear sky,-21.35,165.15,
693,Maicao,CO,79.79,broken clouds,11.3832,-72.2432,Hotel Sancho
694,Calabozo,VE,84.94,overcast clouds,8.9242,-67.4293,Hotel Giardini
696,Kuala Lumpur,MY,75.99,few clouds,3.1431,101.6865,Le Méridien Kuala Lumpur
699,Oliveira Dos Brejinhos,BR,78.73,scattered clouds,-12.3169,-42.8961,Hotel Paraiso
705,Vientiane,LA,87.01,mist,17.9667,102.6,Mali Namphu Boutique Hotel
706,Lampang,TH,84.0,broken clouds,18.3333,99.5,Mrs Luis Guest House
708,Ende,ID,82.08,overcast clouds,-8.8432,121.6623,Dwi Putra Hotel - Ende
709,Yulara,AU,78.8,overcast clouds,-25.2406,130.9889,Desert Gardens Hotel - Ayers Rock Resort
713,Sassandra,CI,76.8,light rain,4.95,-6.0833,la terrasse
714,Cairns,AU,82.99,scattered clouds,-16.9167,145.7667,Mantra Trilogy Cairns
715,Nieuw Amsterdam,SR,82.4,few clouds,5.8833,-55.0833,Hotel Stardust
716,Kasongo-Lunda,CD,70.2,overcast clouds,-6.4667,16.8167,
717,Aripuana,BR,72.95,scattered clouds,-9.1667,-60.6333,
719,Sungairaya,ID,77.32,overcast clouds,0.7,108.9,Mess P.Milu
726,Ixtapa,MX,86.0,few clouds,20.7,-105.2,Hotel Plaza Providencia
730,Vung Tau,VN,80.47,broken clouds,10.345999999999998,107.0843,Green hotel
732,Mount Isa,AU,87.8,scattered clouds,-20.7333,139.5,ibis Styles Mt Isa Verona
733,Pizarro,CO,77.18,light rain,4.9533,-77.366,Hotel Limonar
735,Tadine,NC,82.53,clear sky,-21.55,167.8833,
743,La Palma,US,78.8,few clouds,33.8464,-118.0467,La Quinta Inn & Suites by Wyndham Buena Park
744,Natchez,US,80.6,overcast clouds,31.5604,-91.4032,Hampton Inn & Suites Natchez
746,Belmonte,BR,78.8,clear sky,-15.8631,-38.8828,Pousada Monte Carmelo O Pão
747,Trairi,BR,74.44,broken clouds,-3.2778,-39.2689,janelas do mar
748,Roebourne,AU,84.92,overcast clouds,-20.7833,117.1333,Harding River Caravan Park
749,Papara,BR,77.0,broken clouds,-3.9839,-38.7273,Romin
755,Cayenne,GF,80.01,broken clouds,4.9333,-52.3333,Hôtel Le Dronmi
758,Urucui,BR,75.78,broken clouds,-7.2294,-44.5561,Hotel Premium Piauí
760,Maragogi,BR,76.37,overcast clouds,-9.0122,-35.2225,Salinas do Maragogi All Inclusive Resort
761,Uberaba,BR,74.07,broken clouds,-19.7483,-47.9319,Tamareiras Park Hotel
762,Kalianget,ID,81.01,few clouds,-7.05,113.9333,Pesanggrahan Garam
763,Ca Mau,VN,80.91,few clouds,9.1769,105.15,Khách Sạn Mường Thanh Luxury Cà Mau
764,Puerto Suarez,BO,82.56,broken clouds,-18.95,-57.8,Hotel casa real
765,Puri,IN,75.2,mist,19.8,85.85,OYO 1577 Hotel Shree Hari Grand
766,Tual,ID,80.89,light rain,-5.6667,132.75,Grand Vilia Hotel
769,Bolobo,CD,73.17,scattered clouds,-2.1667,16.2333,Hotel de Stephen
770,Karimpur,IN,74.86,clear sky,23.9667,88.6167,gabrudanga jumma masjid
775,Madang,PG,81.32,overcast clouds,-5.2246,145.7966,Comfort Inn Hotel
776,Banquero,PH,77.34,scattered clouds,17.0231,121.7783,Kristel
777,Moussoro,TD,75.18,clear sky,13.6408,16.4901,Pharmacie alnadja Moussoro
779,Sao Gabriel Da Cachoeira,BR,73.6,heavy intensity rain,-0.1303,-67.0892,Alarne - Área De Lazer Do Alto Rio Negro
784,Starkville,US,73.99,scattered clouds,33.4504,-88.8184,Hilton Garden Inn Starkville
785,Aquidauana,BR,82.44,broken clouds,-20.4711,-55.7872,HOTEL ARARAS
788,Pontianak,ID,77.0,scattered clouds,-0.0333,109.3333,Aston Pontianak Hotel & Convention Center
789,Vadodara,IN,79.95,clear sky,22.3,73.2,Grand Mercure Vadodara Surya Palace
797,Jeremie,HT,77.49,few clouds,18.65,-74.1167,Auberge’Inn
802,Tuy Hoa,VN,75.2,overcast clouds,13.0833,109.3,CenDeluxe Hotel Tuy Hoa
803,Morondava,MG,73.74,scattered clouds,-20.2833,44.2833,La Case Bambou
804,Beloha,MG,70.25,few clouds,-25.1667,45.05,
805,Manuk Mangkaw,PH,82.22,overcast clouds,4.8,119.85,
806,Mount Pleasant,US,73.4,scattered clouds,32.7941,-79.8626,Best Western Patriots Point
808,Gweta,BW,73.18,clear sky,-20.1833,25.2333,Gweta Lodge
811,Naze,JP,71.6,broken clouds,28.3667,129.4833,奄美ポートタワーホテル
813,Narasannapeta,IN,75.78,few clouds,18.4167,84.05,G.lingaraju home
815,Auki,SB,85.32,light rain,-8.7676,160.7034,Auki Motel
816,Chiang Klang,TH,78.01,few clouds,19.2938,100.8617,Sangthong Resort
821,Teshie,GH,82.4,clear sky,5.5836,-0.1072,Adinkra Lodge
822,Metro,ID,75.27,light rain,-5.1131,105.3067,OYO 3177 Wisma Lintang
826,Rajura,IN,79.16,clear sky,19.7833,79.3667,Bharat Lodge
828,Port Hedland,AU,82.4,scattered clouds,-20.3167,118.5667,The Esplanade Hotel
829,Sao Miguel Do Iguacu,BR,77.0,moderate rain,-25.3481,-54.2378,Hotel Itaguaçu
831,Rio Grande,BR,71.01,moderate rain,-32.035,-52.0986,Hotel Atlântico Rio Grande
834,Labuhan,ID,79.43,few clouds,-6.8844,112.2051,PT PPI Lamongan Tambak C
836,Karaton,ID,81.0,mist,-6.3424,106.1045,Parkir Mobil Wisata CAS Water Park
841,Perth,AU,71.01,clear sky,-31.9333,115.8333,Beatty Lodge
848,Luanda,AO,78.8,few clouds,-8.8368,13.2343,LANDU MARINEZA LUFUANDU TONI
851,Envira,BR,73.02,overcast clouds,-7.3,-70.2167,
852,Sambava,MG,74.59,overcast clouds,-14.2667,50.1667,Melrose
858,Simplicio Mendes,BR,80.33,broken clouds,-7.8539,-41.9103,Fidalgo
860,Puerto Baquerizo Moreno,EC,78.4,few clouds,-0.9,-89.6,Hotel los Algarrobos
862,Sainte-Suzanne,RE,75.2,light rain,-20.9061,55.6089,Gites Ango
863,Itarema,BR,76.21,broken clouds,-2.9248,-39.9167,"Sea Lounge! Bar, Club & Restaurant"
864,Poum,NC,81.14,clear sky,-20.2333,164.0167,Gîte kajeon
868,Araouane,ML,74.89,clear sky,18.9048,-3.5265,
870,Dire,ML,83.46,broken clouds,12.2833,-10.9667,
872,Jackson,US,72.0,clear sky,42.4165,-122.8345,Agate Village Apartments
874,Makaha,US,84.2,scattered clouds,21.4694,-158.2175,Makaha Resort
875,Lockhart,US,82.0,broken clouds,28.6194,-81.4426,Courtyard by Marriott Orlando Altamonte Springs/Maitland
879,Marawi,PH,77.0,broken clouds,7.9986,124.2928,Derogongan Residence
880,Tonj,SS,79.18,clear sky,7.2737,28.6822,
883,Borba,BR,74.62,light rain,-4.3878,-59.5939,Hotel da Amazônia
886,Ghanzi,BW,70.38,scattered clouds,-21.5667,21.7833,Ghanzi Farmhouse
887,Xuddur,SO,73.38,overcast clouds,4.1213,43.8894,Banjanay Hotel
888,Pangai,TO,81.77,light rain,-19.8,-174.35,Ha'apai Beach Resort
889,Kota,IN,78.21,clear sky,25.1833,75.8333,Hotel Tanishq
891,Lodja,CD,70.95,overcast clouds,-3.4833,23.4333,
893,San Alberto,CO,78.12,overcast clouds,7.7611,-73.3922,Hotel San Alberto Plaza
896,Simoes,BR,76.57,broken clouds,-7.5989,-40.8178,Hotel Ponto Certo
901,Thai Binh,VN,73.4,light intensity drizzle,20.45,106.3333,Sweden Hotel
906,Ambulu,ID,78.06,broken clouds,-8.345,113.6058,Hotel Ambulu Jember
907,Mongo,TD,83.25,broken clouds,12.1844,18.692999999999998,Résidences du Programme FIDA
911,Tshela,CD,73.58,overcast clouds,-4.9833,12.9333,Hotel Mirador
914,Rio Brilhante,BR,81.52,broken clouds,-21.8019,-54.5464,Hotel Cattani
918,Maua,BR,79.0,clear sky,-23.6678,-46.4614,Hotel Capriccio Mauá
921,Batangafo,CF,78.84,light rain,7.3008,18.2833,OCHA Office
922,Songkhla,TH,77.0,few clouds,6.8333,100.6667,น.ส ซัลมา สาแม็ง
926,Mpulungu,ZM,70.81,light rain,-8.7623,31.1141,Nhkupi Lodge
930,Caborca,MX,78.01,clear sky,30.5838,-111.101,Hotel Los Lagos
932,Porto Novo,BJ,84.2,few clouds,6.4965,2.6036,Tour Eiffel Hotel Benin
933,Nioaque,BR,79.14,overcast clouds,-21.1353,-55.83,Nioaque Novo Hotel
934,Grand Baie,MU,77.0,broken clouds,-20.0182,57.5802,Trou aux Biches Beachcomber Golf Resort & Spa
935,Yuli,NG,78.78,few clouds,9.6989,10.2744,
936,Mahe,IN,77.23,overcast clouds,11.7,75.5333,Mahi Midas
939,Toamasina,MG,73.4,light rain,-18.1667,49.3833,Hotel H1
943,San Vicente,AR,71.55,moderate rain,-26.6167,-54.1333,Complejo Turístico Farelluk
945,Iracoubo,GF,76.66,overcast clouds,5.4802,-53.2011,Le Gite D Iracoubo
946,Minbu,MM,81.34,overcast clouds,20.1833,94.8833,Kaung Thar Guest House - Burmese Only
956,Bam,IR,75.96,clear sky,29.105999999999998,58.357,Bam Tourist Hotel
958,Jizan,SA,78.8,clear sky,17.3333,42.6667,شهدان. ابوالحجر
962,Gemena,CD,70.75,broken clouds,3.25,19.7667,Hôtel Goshen
966,Atambua,ID,77.59,overcast clouds,-9.1061,124.8925,Pastori 1 Jemaat Polycarpus
969,San Felipe,VE,70.9,overcast clouds,10.3399,-68.7425,Posada Llovizna Rodríguez
973,Flinders,AU,72.0,clear sky,-34.5833,150.8552,Shellharbour Resort & Conference Centre
974,Boende,CD,72.05,few clouds,-0.2167,20.8667,
976,Tandalti,SD,75.85,clear sky,13.0167,31.8667,منزل : الهادي محمد مساعد
981,Tiarei,PF,87.8,light rain,-17.5333,-149.3333,Le Rocher de Tahiti
991,Puerto Lopez,CO,79.0,overcast clouds,4.0845,-72.956,Resguardo Indigena Maguare
993,Puerto Cabezas,NI,82.4,broken clouds,14.0351,-83.3888,Cabaña Caribe
994,Les Cayes,HT,76.64,scattered clouds,18.2,-73.75,Villa Orphee
996,Malakal,SS,84.07,scattered clouds,9.5334,31.6605,Nile Palace Hotel
1003,Rohnert Park,US,73.99,clear sky,38.3396,-122.7011,DoubleTree by Hilton Hotel Sonoma Wine Country
1009,Vieques,PR,78.8,scattered clouds,18.425,-65.8329,"The St. Regis Bahia Beach Resort, Puerto Rico"
1014,Bubaque,GW,76.19,overcast clouds,11.2833,-15.8333,"Casa Dora, Bubaque"
1015,Charters Towers,AU,82.81,clear sky,-20.1,146.2667,Cattleman's Rest Motor Inn
1016,Alenquer,BR,77.0,clear sky,-1.9417,-54.7383,Josilene Castro
1017,Laibin,CN,73.02,overcast clouds,23.7,109.2667,GreenTree Alliance Laibin Railway Station Hotel
1020,Kuching,MY,77.0,few clouds,1.55,110.3333,The Ranee Boutique Suites
1021,Arawa,PG,84.56,light rain,-6.2132,155.5367,Coastline Guest House
1027,Palmas De Monte Alto,BR,74.37,overcast clouds,-14.2672,-43.1619,RAVENA AUTO POSTO LTDA
1035,Diu,IN,78.76,clear sky,20.7141,70.9822,Hotel Relax Inn
1038,Cotonou,BJ,84.2,few clouds,6.3654,2.4183,Novotel Cotonou Orisha
1040,Niquero,CU,80.42,few clouds,20.0431,-77.5828,Islazul Niquero
1041,Gold Coast,AU,82.4,clear sky,-28.0,153.4333,Mantra Towers of Chevron Surfers Paradise
1042,Peruibe,BR,77.16,moderate rain,-24.32,-46.9983,Hotel Pousada Xapuri
1045,Mahibadhoo,MV,79.72,overcast clouds,3.7833,72.9667,Omadhoo Inn
1048,Wewak,PG,80.51,moderate rain,-3.5534,143.6268,In Wewak Boutique Hotel
1049,Ambanja,MG,73.2,overcast clouds,-13.6833,48.45,Hotel Salama and Fast Food
1051,Namatanai,PG,84.7,light rain,-3.6667,152.4333,Namatanai Hotel
1060,Japura,ID,73.85,few clouds,-0.3167,102.35,Rumah mbah Jamah
1061,Ipira,BR,72.5,overcast clouds,-12.1583,-39.7372,Pallace Hotel e Restaurante
1063,Barranca,PE,70.14,few clouds,-10.75,-77.7667,El Olivar Hospedaje
1064,Kuah,MY,78.8,few clouds,6.3265,99.8432,Azio Hotel
1067,Lodwar,KE,83.25,overcast clouds,3.1191,35.5973,Turkwel Lodge
1068,Champerico,GT,86.0,scattered clouds,14.3,-91.9167,"Hotel y restaurante ""El Diamante"""
1077,Tuni,IN,74.35,few clouds,17.35,82.55,Sai Krishna Lodge
1079,Nizwa,OM,76.08,few clouds,22.9333,57.5333,Orient Apartments
1082,Katherine,AU,84.2,overcast clouds,-14.4667,132.2667,Pine Tree Motel
1083,Dawei,MM,77.22,light rain,14.0833,98.2,Hotel Dawei
1084,Mangaratiba,BR,78.8,clear sky,-22.9597,-44.0406,Portobello Resort & Safari
1089,Xiongzhou,CN,74.21,clear sky,25.1167,114.3,Xinhewan Business Hotel
1091,Saint-Pierre,RE,75.2,broken clouds,-21.3393,55.4781,Lindsey Hôtel
1094,Santa Isabel,BR,78.8,clear sky,-23.3156,-46.2214,Chácara Sombra do Altíssimo
1096,Ambovombe,MG,71.17,clear sky,-25.1667,46.0833,RELAHARA
1101,Nortelandia,BR,75.49,clear sky,-14.4547,-56.8028,Hotel Karysmã
1103,Acari,PE,74.03,scattered clouds,-15.4311,-74.6158,HOSPEDAJE XIMENA
1104,Batticaloa,LK,78.76,broken clouds,7.7102,81.6924,Grand Star Guest House
1111,Bairiki,KI,86.0,few clouds,1.3292,172.9752,Tarawa Boutique Hotel
1112,Tchollire,CM,83.44,scattered clouds,8.4022,14.1698,"Auberge ""l'amicale"""
1113,Samarai,PG,84.58,broken clouds,-10.6167,150.6667,Nuli Sapi
1118,Black River,JM,82.4,few clouds,18.0264,-77.8487,Idlers' Rest Beach Hotel
1120,Ojinaga,MX,80.6,clear sky,29.5667,-104.4167,Suites Las Palmas
1122,Kandi,BJ,81.25,clear sky,11.1342,2.9386,Baric Motel De Kandi
1124,Costa Rica,BR,78.35,overcast clouds,-23.4167,-54.65,
1125,North Myrtle Beach,US,70.0,scattered clouds,33.816,-78.68,Avista Resort
1127,Abohar,IN,71.62,clear sky,30.15,74.1833,OYO 37129 Hotel Piccadily
1130,Lakatoro,VU,84.63,scattered clouds,-16.0999,167.4164,Lakatoro Palm Lodge
1131,Dubai,AE,78.8,clear sky,25.2582,55.3047,"Radisson Blu Hotel, Dubai Deira Creek"
1134,Porto Belo,BR,77.0,scattered clouds,-27.1578,-48.5531,Costa Verde Beach Hotel
1137,Antalaha,MG,74.1,overcast clouds,-14.9003,50.2788,Hotel Vitasoa
1148,Santa Elena,EC,78.8,clear sky,-2.2333,-80.85,HOTEL CISNE II
1151,Manutuke,NZ,75.0,overcast clouds,-38.6833,177.9167,Jolly Stockman Hotel
1155,Pauini,BR,74.01,overcast clouds,-7.7136,-66.9764,Casa do Kiwliks
1156,Keti Bandar,PK,77.09,overcast clouds,24.1447,67.4497,Haji laloo memon house
1158,Cockburn Town,TC,77.0,scattered clouds,21.4612,-71.1419,Osprey Beach Hotel
1163,Carira,BR,72.63,few clouds,-10.3608,-37.7011,Praca dos motorista
1167,Itupiranga,BR,73.98,overcast clouds,-5.1347,-49.3267,Hotel Panorama
1170,Palauig,PH,83.16,overcast clouds,15.435,119.9045,Myhousebythesea
1172,Alto Longa,BR,75.38,broken clouds,-5.2511,-42.2103,pousada E Restaurante Longá
1173,Sapele,NG,78.28,broken clouds,5.8941,5.6767,Movig Hotel & Suites
1174,Riyadh,SA,73.4,scattered clouds,24.6877,46.7219,InterContinental Riyadh
1175,Tabou,CI,77.0,light rain,4.423,-7.3528,hotêl doufoulougou
1176,Nong Khai,TH,87.01,light rain,17.9167,103.0833,จารุวรรณ วงชัยยา
1180,Jawhar,SO,77.34,overcast clouds,2.7809,45.5005,cosoble spare parts
1181,Mamou,GN,72.79,few clouds,10.5,-12.0,
1182,Gangapur,IN,74.93,clear sky,26.4833,76.7167,Hotel Haveli
1184,Santiago De Cao,PE,70.56,scattered clouds,-7.9589,-79.2392,Villa Konecta - Alojamiento Familiar
1185,Manokwari,ID,76.33,moderate rain,-0.8667,134.0833,Swiss Belhotel Manokwari
1191,Olinda,BR,78.8,light rain,-8.0089,-34.8553,Hotel Albergue de Olinda
1193,Sokoto,NG,73.09,clear sky,13.0609,5.239,Shukura Coral Hotel
1195,Alugan,PH,81.09,broken clouds,12.2188,125.4808,JM Lodge
1199,Mocuba,MZ,71.87,moderate rain,-16.8392,36.9856,Phama Lodge
1202,Ahmadpur,IN,78.67,clear sky,18.7,76.9333,Hengane (Pitashri Niwas)
1204,Kaduqli,SD,79.14,clear sky,11.0167,29.7167,فندق الله جابو
1206,Sibolga,ID,76.39,broken clouds,1.7427,98.7792,Hotel Syariah CN Darussalam
1210,Lazaro Cardenas,MX,79.3,clear sky,17.9583,-102.2,Hotel Quinta Antigua
1211,Khartoum,SD,73.99,clear sky,15.5518,32.5324,Hotel China
1212,Male,MV,82.4,broken clouds,4.1748,73.5089,Hotel Octave Maldives
1213,Clarence Town,AU,75.0,clear sky,-32.5833,151.7833,River Downs Cottage
1214,Mayumba,GA,79.81,moderate rain,-3.432,10.6554,LIKWALE LODGE
1215,Yaan,NG,84.04,scattered clouds,7.3833,8.5667,
1218,Maunabo,PR,78.01,clear sky,18.0072,-65.8993,Maunacaribe
1222,Betare Oya,CM,74.23,light rain,5.6,14.0833,Auberge Tembina Betaré Oya
1223,Barra,BR,83.07,broken clouds,-11.0894,-43.1417,Motel Albatroz
1229,Santarem,BR,77.0,clear sky,-2.4431,-54.7083,Ecotur Lodge
1230,Mana,GF,76.53,broken clouds,5.6592,-53.7767,LE SAMANA
1235,Na Wa,TH,87.01,scattered clouds,17.4897,104.1006,ร้านช่างเจมส์ สแตนเลส ประตู อื่นๆ คอกซิ่ง นาหว้านครพนม
1237,Mabaruma,GY,71.91,overcast clouds,8.2,-59.7833,
1238,Boueni,YT,80.6,clear sky,-12.9025,45.0761,The feet in water
1240,Kiunga,PG,86.04,broken clouds,-6.1219,141.2906,Airport Lodge Kiunga
1241,Pushkar,IN,73.08,clear sky,26.5,74.55,Orchard - Tents and Tranquility
1245,Ouadda,CF,72.16,scattered clouds,8.0777,22.4007,
1256,Puerto Carreno,CO,84.47,overcast clouds,6.189,-67.4859,Casa Hotel Victoria
1261,Jaque,PA,78.75,light rain,7.5175,-78.1703,Imbu Bua Lodge
1264,Impfondo,CG,73.6,few clouds,1.6381,18.0667,Préfecture de la Likouala
1265,Gadsden,US,77.0,few clouds,34.0143,-86.0066,Hampton Inn Gadsden
1266,Mahanoro,MG,75.27,clear sky,-19.9,48.8,BUNGALOW MAHAMANINA
1267,Pabna,BD,72.59,light rain,24.0,89.25,Hotel Dream Palace International
1271,Iralaya,HN,82.4,few clouds,15.0,-83.2333,Iglesia morava renovada
1273,Pa Sang,TH,80.01,few clouds,18.5262,98.9394,โรงแรม จามจุรี 99
1280,Merauke,ID,83.59,scattered clouds,-8.4667,140.3333,PC
1281,Codajas,BR,74.57,overcast clouds,-3.8367,-62.0569,Hotel Tamires
1283,Dalbandin,PK,74.16,few clouds,28.8947,64.4101,Sanjrani House
1288,Uruacu,BR,71.22,broken clouds,-14.5247,-49.1408,Cassius Hotel
1289,Sidrolandia,BR,78.8,clear sky,-20.9319,-54.9614,Agropet São Francisco
1290,Guarapari,BR,78.8,clear sky,-20.6667,-40.4975,Hotel Porto do Sol
1295,Kingston,JM,82.4,few clouds,17.997,-76.7936,The Jamaica Pegasus Hotel
1297,Alyangula,AU,86.16,broken clouds,-13.8483,136.4192,Groote Eylandt Lodge
1300,Fremont,US,75.0,clear sky,37.5483,-121.9886,All Suites Islander Motels
1301,Paulo Afonso,BR,76.21,few clouds,-9.4061,-38.2147,Pousada Ilha Bela
1302,Floriano,BR,76.28,scattered clouds,-6.7669,-43.0225,Hotel Maktub
1305,Victoria Point,AU,81.0,clear sky,-27.5833,153.3,Bay Retreat Motel
1306,Oriximina,BR,76.15,scattered clouds,-1.7656,-55.8661,Pousada Tia Amélia
1308,Ternate,ID,79.77,moderate rain,0.8,127.4,Grand Dafam Bela Ternate
1309,Mitsamiouli,KM,82.08,broken clouds,-11.3847,43.2844,Foyer ADM
1312,Caxito,AO,78.8,broken clouds,-8.5785,13.6643,
1320,Amapa,BR,71.28,overcast clouds,1.0,-52.0,
1321,Iranshahr,IR,74.48,overcast clouds,27.2025,60.6848,پلکه بزرگ
1322,Mangrol,IN,77.74,scattered clouds,21.1167,70.1167,Hotel The Royal Honours
1324,Amalapuram,IN,72.21,few clouds,16.5833,82.0167,swayamprabha service apartments
1328,Varzelandia,BR,73.33,scattered clouds,-15.7014,-44.0275,Pousada Portal da Cidade
1329,Patiya,BD,70.59,overcast clouds,22.2931,91.9762,R Village
1335,Baculin,PH,81.09,overcast clouds,7.4525,126.5842,Shovy's Cove
1336,Pak Phanang,TH,77.0,few clouds,8.3511,100.20200000000001,Green Park Inn Hotel
1341,Sijunjung,ID,71.01,overcast clouds,-0.6876,100.9537,Hotel Bukik Gadang
1346,Sikasso,ML,83.75,few clouds,10.9167,-7.0,
1350,Alcantara,BR,80.6,broken clouds,-2.4089,-44.4147,Pousada da Josefa
1353,Paita,PE,78.8,clear sky,-5.0892,-81.1144,Hotel Náutico de Paita
1355,Ler,SS,81.7,few clouds,8.3018,30.1418,
1358,Innisfail,AU,79.0,light rain,-17.5333,146.0333,Moondarra Motel
1359,Save,BJ,81.07,broken clouds,8.0425,2.4859999999999998,Restaurant Plazza Hotel
1362,Myrtle Beach,US,73.99,overcast clouds,33.6891,-78.8867,Bay View Resort Myrtle Beach
1364,Phoenix,US,80.01,scattered clouds,33.4484,-112.074,Kimpton Hotel Palomar Phoenix
1367,Mbandaka,CD,73.58,scattered clouds,0.0487,18.2603,Guest House Epervier
1371,Acapulco,MX,84.2,clear sky,16.8634,-99.8901,HS Hotsson Smart Acapulco
1372,Chake Chake,TZ,78.55,overcast clouds,-5.2459,39.7666,Hotel Archipelago
1375,Corn Island,NI,79.29,clear sky,12.1694,-83.0418,Big Fish Guest House
1379,Manaus,BR,80.6,scattered clouds,-3.1019,-60.025,Manaus Hotéis Millennium
1385,Indramayu,ID,77.47,overcast clouds,-6.3264,108.32,Grand Trisula Hotel
1388,Kampong Cham,KH,80.29,overcast clouds,11.9934,105.4635,7 Makara Hotel
1392,Snyder,US,71.6,clear sky,32.7179,-100.9176,Holiday Inn Express & Suites Snyder
1399,Dwarka,IN,77.5,broken clouds,22.2394,68.9678,Hotel Narayan Avezika Comfort
1400,Wanning,CN,75.96,overcast clouds,18.8003,110.3967,Paradise Hotel
1405,Kuala Terengganu,MY,77.0,few clouds,5.3302,103.1408,Hotel Grand Continental Kuala Terengganu (4 Star)
1411,Kununurra,AU,84.2,overcast clouds,-15.7667,128.7333,Hotel Kununurra
1412,La Asuncion,VE,76.21,overcast clouds,11.0333,-63.8628,Colinas de Matasiete
1416,Cantanhede,BR,72.64,moderate rain,-3.6333,-44.3767,HOTEL FE EM DEUS
1417,Juazeiro,BR,84.2,clear sky,-9.4117,-40.4986,JB Hotel
1418,Passagem Franca,BR,71.2,broken clouds,-6.1797,-43.7836,Hotel Brasil
1419,Sagua De Tanamo,CU,75.22,clear sky,20.5819,-75.2414,
1420,Iquitos,PE,78.8,scattered clouds,-3.7481,-73.2472,Casa Morey Hotel & Restaurant
1423,Guhagar,IN,78.06,broken clouds,17.4842,73.1929,Hotel Seawinds
1429,Saint-Georges,GD,78.8,scattered clouds,12.0564,-61.7485,Siesta Hotel
1431,Bangassou,CF,70.83,overcast clouds,4.7413,22.8184,
1432,Kudahuvadhoo,MV,78.94,overcast clouds,2.6708,72.8944,Niyama Private Islands Maldives
1433,Wilmington Island,US,75.2,broken clouds,32.0036,-80.9737,Breezeway Studio Manor LLC
1439,Langsa,ID,74.97,scattered clouds,4.4683,97.9683,OYO 2964 Hotel Ridho
1441,Tutoia,BR,76.03,overcast clouds,-2.7619,-42.2744,Pousada Guará's
1442,Lakota,CI,72.88,overcast clouds,5.8528,-5.6883,Aziz bah divers
1444,Lagos,NG,79.25,broken clouds,6.5833,3.75,
1445,Alpharetta,US,78.01,overcast clouds,34.0754,-84.2941,Hilton Garden Inn Atlanta Northpoint
1448,Kishni,IN,73.54,clear sky,27.0247,79.2634,श्री आंनद ग्रुप
1453,Gamba,GA,78.4,light rain,-2.65,10.0,
1454,Chahuites,MX,83.91,clear sky,16.2833,-94.1833,Casa de los hermanos Matus moreno
1455,Belize,BZ,81.0,clear sky,17.25,-88.75,Villa San Juan
1456,Brownsville,US,80.6,overcast clouds,25.9018,-97.4975,University Inn & Suites
1458,Tiassale,CI,75.67,overcast clouds,5.8983,-4.8283,Hotel La Villa Des Hotes Tiassale
1463,Moanda,GA,72.23,broken clouds,-1.5575,13.2178,Motel Hippo +
1466,Birao,CF,77.95,few clouds,10.2849,22.7882,
1469,Ngaoundere,CM,71.06,broken clouds,7.3167,13.5833,Hotel Mentong Palace
1470,Fiditi,NG,76.75,broken clouds,7.7136,3.9172,"FBC Guest House, Fiditi"
1472,Kloulklubed,PW,82.4,broken clouds,7.0419,134.2556,Storyboard Beach Resort
1474,San Ignacio,BZ,89.6,clear sky,17.1561,-89.0714,Rainforest Haven Inn
1475,Bouca,CF,76.33,overcast clouds,6.5105,18.2733,
1476,Dong Hoi,VN,74.52,overcast clouds,17.4833,106.6,Nam Long Hotel
1479,Nuevo Progreso,MX,80.01,few clouds,23.1667,-97.95,Balneario Rio el Paraiso
1481,Ormara,PK,77.05,overcast clouds,25.2088,64.6357,Crystal Beach and Camping Resort Ormara
1482,Zaraza,VE,77.63,overcast clouds,9.3503,-65.3245,Hotel Zaraza
1487,Araceli,PH,82.24,overcast clouds,10.5529,119.9913,JBryan Traveler's Inn
1492,San Francisco,US,73.4,clear sky,37.7749,-122.4194,The Clift Royal Sonesta Hotel
1494,Acarau,BR,76.82,broken clouds,-2.8856,-40.12,castelo pizzaria
1498,Brazzaville,CG,75.2,few clouds,-4.2658,15.2832,Hotel Murex
1503,Panama City,PA,86.0,scattered clouds,8.9936,-79.5197,Hotel Riande Granada Urban
1505,Inongo,CD,73.17,light rain,-1.95,18.2667,Hotel Du Lac
1506,Ariquemes,BR,73.29,scattered clouds,-9.9133,-63.0408,Hotel Sol Nascente - Ariquemes - RO
1511,Pemangkat,ID,76.69,overcast clouds,1.1667,108.9667,Kost H.Syamsuddin
1516,Tungi,BD,78.8,haze,23.89,90.4058,Grand Dhaka Hotel
1517,The Valley,AI,78.8,broken clouds,18.217,-63.0578,CeBlue Villas & Beach Resort
1520,Khudumelapye,BW,71.73,broken clouds,-23.8833,24.75,
1522,Haapiti,PF,87.8,scattered clouds,-17.5667,-149.8667,Linareva Moorea Beach Resort
1523,Trincomalee,LK,79.7,broken clouds,8.5711,81.2335,Welcombe Hotel
1525,Christchurch,NZ,80.01,broken clouds,-43.5333,172.6333,The George
1537,Kanel,SN,84.2,clear sky,15.4916,-13.1763,
1538,Santa Isabel Do Rio Negro,BR,74.86,overcast clouds,-0.4139,-65.0192,Hotel GSA
1539,Barreirinhas,BR,75.22,moderate rain,-2.7469,-42.8264,Gran Lençóis Flat Residence
1546,Sainte-Marie,RE,75.2,light rain,-20.8968,55.5496,Les pailles en queue de Sainte Marie
1548,Bacolod,PH,82.53,overcast clouds,10.6667,122.95,Planta Hotel & Residences
1549,Serra Talhada,BR,73.4,broken clouds,-7.9919,-38.2983,Pousada São Luiz
1550,Yilan,TW,77.0,clear sky,24.756999999999998,121.75299999999999,Dar Chen Hotel
1551,Sweetwater,US,79.0,scattered clouds,25.7634,-80.3731,Li'l Abner Mobile Home Park
1552,Pangkalanbuun,ID,76.19,light rain,-2.6833,111.6167,Grand Kecubung Hotel
1558,Benguela,AO,76.93,broken clouds,-12.5763,13.4055,Hotel Praia Morena
1559,Digha,IN,76.77,few clouds,21.6833,87.55,Khoniker Atithi
1562,Axim,GH,78.44,broken clouds,4.8699,-2.2405,AXIM BEACH RESORT AND SPA
1563,Phuket,TH,80.6,scattered clouds,8.0,98.25,The Surin Phuket
1564,Fuerte Olimpo,PY,78.22,moderate rain,-21.0415,-57.8738,Hospedaje DAMI
1566,Pocone,BR,81.3,scattered clouds,-16.2567,-56.6228,Hotel e Churrascaria Pantaneira
1568,Nicoya,CR,84.2,clear sky,10.1483,-85.45200000000001,Guayacan Real
1569,Lima,PE,70.0,clear sky,-12.0432,-77.0282,Gran Hotel Bolivar Lima
1571,Pineville,US,78.8,overcast clouds,31.3224,-92.4343,"Country Inn & Suites by Radisson, Pineville, LA"
1572,Tubajon,PH,81.25,overcast clouds,10.3317,125.5619,Taganas Beach Resort
1573,Limbang,MY,77.0,broken clouds,4.75,115.0,Purnama Hotel
1575,Tela,HN,86.0,scattered clouds,15.7833,-87.45,Hotel & Restaurante Cesar Mariscos
1578,Beira,MZ,78.8,light rain,-19.8436,34.8389,Beira Terrace Hotel
1579,Garowe,SO,70.39,broken clouds,8.4054,48.4845,Curubo Hotel
1582,Bay Saint Louis,US,75.2,scattered clouds,30.3088,-89.33,The Abode Guest House
1585,Road Town,VG,78.8,scattered clouds,18.4167,-64.6167,"ZINGARA 76ft Catamaran, full crew-all included"
1586,Douentza,ML,79.34,clear sky,14.9951,-2.9517,Ogomono Doumbo
1587,Voh,NC,89.44,clear sky,-20.9667,164.7,Le gîte du Koniambo
1589,Tupelo,US,78.8,few clouds,34.2576,-88.7034,"Hilton Garden Inn Tupelo, MS"
1594,Barreirinha,BR,74.93,scattered clouds,-2.7933,-57.07,Hotel e Restaurante Tupana Iwato
1599,Kihei,US,82.4,scattered clouds,20.785,-156.4656,Maui Sunset
1601,Cassilandia,BR,75.04,scattered clouds,-19.1133,-51.7342,Delirius Motel
1614,Barreiros,BR,75.54,overcast clouds,-8.8183,-35.1864,Recanto Bird
1619,Ambuclao,PH,76.24,broken clouds,16.4833,120.75,Lolo Cancio’s Inn & Restaurant
1620,Am Timan,TD,82.04,broken clouds,11.0297,20.2827,Palais du chef Canton Salamt
1623,Bousse,BF,89.6,few clouds,12.6606,-1.8922,Maison d'hôtes EBEN-EZER DE BOUSSE
1626,Gambela,ET,78.13,broken clouds,8.25,34.5833,Solomon Debebe Hotel
1628,Isla Mujeres,MX,80.6,scattered clouds,21.2311,-86.73100000000001,Hotel La Joya Isla Mujeres
1629,Apud,PH,79.83,broken clouds,13.1393,123.2916,Pamar Beach Resort
1633,Sao Jose Da Coroa Grande,BR,76.78,overcast clouds,-8.8978,-35.1478,Crôa Mares Hotel
1635,Dabakala,CI,77.32,broken clouds,8.3667,-4.4333,Hôtel Campement
1639,Ndende,GA,73.72,light rain,-2.4008,11.3581,
1640,Betong,TH,71.83,few clouds,5.7743,101.0723,New Cathay Hotel
1642,Boca Do Acre,BR,74.12,broken clouds,-8.7522,-67.3978,Hotel Sao Pedro
1645,Midland,US,79.0,clear sky,31.9974,-102.0779,DoubleTree by Hilton Hotel Midland Plaza
1646,Dongzhen,CN,73.42,overcast clouds,22.3797,110.9389,茂名中汇时尚酒店
1647,Kimbe,PG,87.01,overcast clouds,-5.5502,150.1429,Kimbe Bay Hotel
1650,Cozumel,MX,81.0,scattered clouds,20.5083,-86.9458,Cozumel Palace® All Inclusive Resort
1656,Tambun,ID,81.0,mist,-6.2641,107.0712,@HOM Premiere Tambun
1660,Muisne,EC,76.71,scattered clouds,0.6,-80.0333,Quinta Samay
1663,Green Valley,US,70.0,clear sky,31.8543,-110.9937,Best Western Green Valley Inn
1664,Kempsey,AU,79.0,clear sky,-31.0833,152.8333,Park Drive Motel
1665,Lisala,CD,70.16,broken clouds,2.15,21.5167,
1666,Itoman,JP,75.2,broken clouds,26.1247,127.6694,Southern Beach Hotel & Resort Okinawa
1668,Rosa Zarate,EC,74.25,moderate rain,0.3333,-79.4667,Piscinas y Recepciones Hecalash
1672,Taraza,CO,76.03,overcast clouds,7.5836,-75.4007,Hotel Monteverde
1674,Purificacion,CO,74.93,overcast clouds,3.8587,-74.9313,Hotel Villa de las Palmas
1675,Miri,MY,75.2,few clouds,4.4148,114.0089,"Mega Hotel, Miri"
1676,Eydhafushi,MV,80.8,overcast clouds,5.1033,73.0708,Soneva Fushi
1677,Kolda,SN,86.0,few clouds,12.8833,-14.95,Hôtel Hobbe Chasse
1680,Saucillo,MX,81.36,scattered clouds,28.0167,-105.2833,Hotel La Posada de San Judas Tadeo
1681,Ciudad Del Maiz,MX,90.0,clear sky,22.4,-99.6,Hotel Casona del General
1682,Kharan,PK,75.33,scattered clouds,28.5833,65.4167,Dil Aram Bangla
1683,Houma,US,78.01,broken clouds,29.5958,-90.7195,Courtyard by Marriott Houma
1684,Maxixe,MZ,70.61,clear sky,-23.8597,35.3472,Oceano
1688,Aitape,PG,81.59,overcast clouds,-3.1374,142.3475,
1693,Kwakoa,TZ,72.21,overcast clouds,-3.7667,37.7167,MJI Mwema Lodge
1697,Catalina Foothills,US,73.99,clear sky,32.2979,-110.9187,The Westin La Paloma Resort & Spa
1698,Bonthe,SL,78.64,clear sky,7.5264,-12.505,Bonthe Holiday Village
1701,Taitung,TW,73.4,few clouds,22.7583,121.1444,Taitung Bali Suites Hotel
1704,Toowoomba,AU,77.0,few clouds,-27.55,151.9667,Toowoomba Central Plaza Apartment Hotel
1705,Lindi,TZ,73.4,broken clouds,-10.0,39.7167,Lindi paradise house
1712,Hays,US,87.8,scattered clouds,30.0502,-98.0336,Sinya on Lone Man Creek
1713,Ilebo,CD,70.84,scattered clouds,-4.3167,20.5833,Hôtel BUMAK
1716,Soyo,AO,80.11,overcast clouds,-6.1349,12.3689,Hotel Mpampa
1721,Kidal,ML,70.5,clear sky,18.4411,1.4078,
1727,Rurrenabaque,BO,77.0,broken clouds,-14.4413,-67.5278,Casa de Campo
1729,Wagar,SD,70.45,clear sky,16.1525,36.2032,
1737,Tomas Oppus,PH,82.02,broken clouds,10.2506,124.9831,Torres Hotel
1738,Aloleng,PH,82.38,broken clouds,16.1307,119.7824,Agno Umbrella Rocks
1742,Mananjary,MG,74.48,clear sky,-21.2167,48.3333,Vahiny Lodge
1745,Miraflores,MX,84.0,few clouds,19.2167,-98.8083,Hotel Mansión
1754,Pimentel,PE,73.4,clear sky,-6.8367,-79.9342,Casona Del Muelle
1755,Pundaguitan,PH,80.65,light rain,6.3711,126.1689,Leonardo Family Beach House 1
1756,Nabire,ID,79.7,overcast clouds,-3.3667,135.4833,Hotel Nusantara Nabire
1757,Tiebissou,CI,77.0,few clouds,7.1574,-5.2257,Hotel Ngoa
1760,Abeokuta,NG,77.99,overcast clouds,7.15,3.35,Continental Suites Lodge
1765,Venustiano Carranza,MX,84.0,few clouds,19.43,-99.0992,We Hotel Aeropuerto
1766,Dhidhdhoo,MV,83.16,broken clouds,6.8833,73.1,Dhidhoo beach
1767,Venice,US,77.0,haze,27.0998,-82.4543,A Beach Retreat On Casey Key
1771,Kibala,TD,86.0,light rain,9.1104,18.3463,
1773,Buchanan,LR,78.8,broken clouds,5.8808,-10.0467,Kamaneahn Hotel Inc
1775,Vanimo,PG,81.39,overcast clouds,-2.6741,141.3028,Vahmoneh Lodge Vanimo
1776,Wilmington,US,73.99,overcast clouds,34.2257,-77.9447,"Hotel Ballast Wilmington, Tapestry Collection by Hilton"
1777,Dabwali,IN,71.42,clear sky,29.95,74.7333,Hotel Siddarth
1783,Vangaindrano,MG,72.52,clear sky,-23.35,47.6,Hotel Fanilo
1786,Rach Gia,VN,78.8,broken clouds,10.0167,105.0833,Nhà Hàng Hòa Giang
1787,Riohacha,CO,80.91,broken clouds,11.5444,-72.9072,Hotel Taroa
1789,Saquarema,BR,78.8,clear sky,-22.92,-42.5103,Hotel Fazenda Sol e Lua
1795,Chokwe,MZ,71.04,clear sky,-24.5333,32.9833,Complexo Sonho Real
1800,Mendi,PG,70.86,overcast clouds,-6.1761,143.6513,Kiburu Lodge
1803,Kpandae,GH,82.36,few clouds,8.4689,-0.0113,S. Amaski Guest House
1805,Methven,NZ,73.0,overcast clouds,-43.6333,171.65,Brinkley Resort
1808,Key Largo,US,78.01,clear sky,25.0865,-80.4473,Bayside Inn Key Largo
1813,Bauchi,NG,72.97,clear sky,10.5,10.0,
1815,Bobo Dioulasso,BF,82.4,few clouds,11.1771,-4.2979,RAN Hotel Somketa
1816,Amontada,BR,72.68,overcast clouds,-3.3617,-39.8317,Casa do Otávio
1817,San Policarpio,PH,80.22,broken clouds,12.0675,124.5625,Marju Krisel Hotel and Resort
1821,Sinnamary,GF,76.66,overcast clouds,5.3833,-52.95,ALETHEIA Appartement Sinnamary
1822,Doctor Juan Manuel Frutos,PY,70.68,overcast clouds,-25.3667,-55.8,Balneario Las Burbujas
1823,Manzanillo,CU,81.0,scattered clouds,20.3433,-77.1167,"HOSTAL ""THE YELLOW HOUSE"""
1825,Maceio,BR,75.2,broken clouds,-9.6658,-35.7353,Poutur Pousada
1826,Martapura,ID,77.0,overcast clouds,-3.4167,114.85,Montana Hotel Syariah
1827,Micoud,LC,78.8,scattered clouds,13.8167,-60.9,Zamacà
1828,Palembang,ID,75.2,few clouds,-2.9167,104.7458,ASTON Palembang Hotel & Conference Center
1829,Gorontalo,ID,77.97,light rain,0.5412,123.0595,Maqna Hotel by Prasanthi
1833,Oistins,BB,77.0,few clouds,13.0667,-59.5333,Butterfly Beach Hotel
1834,Nakhon Phanom,TH,80.74,scattered clouds,17.3333,104.4167,ป่ายางรีสอร์ท
1835,Ndele,CF,77.0,broken clouds,8.4109,20.6473,
1836,San Antero,CO,81.39,broken clouds,9.3741,-75.7589,Villamarina Inn chale
1838,Puerto Leguizamo,CO,74.43,broken clouds,-0.1934,-74.7819,la casona de juancho
1839,Takoradi,GH,78.62,broken clouds,4.8845,-1.7554,Raybow International Hotel
1840,Tibati,CM,74.7,broken clouds,6.4667,12.6333,Tibati Hotel
1841,Maningrida,AU,84.0,light rain,-12.0667,134.2667,Dhukurrdji Lodge
1842,Alvaraes,BR,77.0,light rain,-3.2208,-64.8042,Av. Castelo Branco. Ginásio Ermelino vieira.
1843,Itajai,BR,77.0,scattered clouds,-26.9078,-48.6619,Sandri Palace Hotel - Itajaí
1846,Sehithwa,BW,71.64,scattered clouds,-20.4667,22.7167,MONLEK GUEST HOUSE
1847,Tebingtinggi,ID,75.2,mist,3.3285,99.1625,Hotel Malibou tebing tinggi
1850,Macau,MO,75.2,mist,22.2006,113.5461,Grand Emperor Hotel
1851,Grand-Santi,GF,71.94,overcast clouds,4.25,-54.3833,Hotel La Villa Couacou
1852,Wajir,KE,79.36,overcast clouds,1.7471,40.0573,Al-bustan Hotel And Restaurant.
1857,Blackwater,AU,82.56,clear sky,-23.5833,148.8833,Blackwater Motor Inn
1859,Eunice,US,77.0,overcast clouds,30.4944,-92.4176,Holiday Inn Express Eunice
1863,Amnat Charoen,TH,82.0,overcast clouds,15.9167,104.75,หอพักนักศึกษา
1865,Bagotville,AU,77.0,clear sky,-28.9833,153.4167,Broadwater Sunrise Caravan Park
1868,Canutama,BR,73.49,moderate rain,-6.5339,-64.3831,Hotel Jhennifer
1875,Islamkot,PK,74.8,clear sky,24.6997,70.17699999999999,Haji Hotel
1877,Siuna,NI,78.75,scattered clouds,13.7332,-84.7773,hotel los chinitos
1878,Tombouctou,ML,73.92,clear sky,20.0,-3.0,
1880,San Antonio,US,88.0,clear sky,29.4241,-98.4936,Drury Plaza Hotel San Antonio Riverwalk
1883,High Rock,BS,77.0,clear sky,26.6208,-78.2833,Hideaway Bahamas Beach Club
1892,Savannakhet,LA,78.8,mist,16.566,104.751,โรงแรม ริเวอร์ ฟร้อนท์
